{
  "emergencies": [
    {
      "id": "E1761933558512",
      "name": "test",
      "wardNo": "Ward 16",
      "location": "Tamaghat",
      "phone": "234234234",
      "type": "Accident",
      "time": "11:44 PM",
      "status": "Resolved",
      "lat": 27.648483967596327,
      "lng": 85.45216561957557
    },
    {
      "id": "E1761936374736",
      "name": "test",
      "wardNo": "Ward 16",
      "location": "Tamaghat",
      "phone": "1234567890",
      "type": "Pregnancy",
      "time": "12:31 AM",
      "status": "Resolved",
      "lat": 27.64888179213701,
      "lng": 85.44725174827119
    },
    {
      "id": "E1761936502009",
      "name": "test",
      "wardNo": "Ward 16",
      "location": "Tamaghat",
      "phone": "4444",
      "type": "Accident",
      "time": "12:33 AM",
      "status": "Resolved",
      "lat": 27.64981497784113,
      "lng": 85.45169811442523
    },
    {
      "id": "E1761937133587",
      "name": "Hrudohx",
      "wardNo": "Ward 16",
      "location": "Tamaghat",
      "phone": "4-343",
      "type": "Pregnancy",
      "time": "12:43 AM",
      "status": "Resolved",
      "lat": 27.651333058676965,
      "lng": 85.45282755549111
    },
    {
      "id": "E1761940222650",
      "name": "Test ",
      "wardNo": "Ward 16",
      "location": "Tamaghat",
      "phone": "5555",
      "type": "Pregnancy",
      "time": "01:35 AM",
      "status": "Resolved",
      "lat": 27.647319008228255,
      "lng": 85.45350656995443
    },
    {
      "id": "E1761940470301",
      "name": "Test",
      "wardNo": "Ward 16",
      "location": "Tamaghat",
      "phone": "6565",
      "type": "Illness",
      "time": "01:39 AM",
      "status": "Resolved",
      "lat": 27.645618249481803,
      "lng": 85.44725359523774
    },
    {
      "id": "E1761940912891",
      "name": "Gv",
      "wardNo": "Ward 16",
      "location": "Tamaghat",
      "phone": "88",
      "type": "Illness",
      "time": "01:46 AM",
      "status": "Resolved",
      "lat": 27.65156465419033,
      "lng": 85.45385176639215
    },
    {
      "id": "E1761941656199",
      "name": "Tt",
      "wardNo": "Ward 16",
      "location": "Tamaghat",
      "phone": "66",
      "type": "Illness",
      "time": "01:59 AM",
      "status": "Resolved",
      "lat": 27.652561952645357,
      "lng": 85.44711128927206
    },
    {
      "id": "E1761942376143",
      "name": "Fcc",
      "wardNo": "Ward 16",
      "location": "Tamaghat",
      "phone": "668",
      "type": "Illness",
      "time": "02:11 AM",
      "status": "Resolved",
      "lat": 27.64666510899421,
      "lng": 85.45332980964852
    },
    {
      "id": "E1761942720367",
      "name": "Hsbs",
      "wardNo": "Ward 16",
      "location": "Tamaghat",
      "phone": "3464",
      "type": "Illness",
      "time": "02:17 AM",
      "status": "Resolved",
      "lat": 27.647418900940956,
      "lng": 85.44585059444914
    },
    {
      "id": "E1761942754346",
      "name": "Eye",
      "wardNo": "Ward 16",
      "location": "Tamaghat",
      "phone": "3434",
      "type": "Illness",
      "time": "02:17 AM",
      "status": "Resolved",
      "lat": 27.6545644543923,
      "lng": 85.45355029968539
    },
    {
      "id": "E1761962284233",
      "name": "Ff",
      "wardNo": "Ward 16",
      "location": "Tamaghat",
      "phone": "58",
      "type": "Pregnancy",
      "time": "07:43 AM",
      "status": "Resolved",
      "lat": 27.649827211787752,
      "lng": 85.44735408187731
    }
  ],
  "hospitals": [],
  "volunteers": [],
  "ambulances": []
}